{
  "season": "auto",
  "matches": [
    {
      "competition": "R1",
      "competition_label": "R1",
      "kickoff": "2026-04-18T00:00:00+00:00",
      "home": "BONDUES FC",
      "away": "CALAIS RACING CLUB",
      "source": "API-DOFA",
      "source_url": "https://api-dofa.fff.fr/api/compets/439189/phases/1/poules/1/resultat",
      "venue": {
        "city": "Bondues",
        "lat": 50.7007,
        "lon": 3.0946
      }
    },
    {
      "competition": "R1",
      "competition_label": "R1",
      "kickoff": "2026-04-18T00:00:00+00:00",
      "home": "GRANDE SYNTHE O.",
      "away": "MARCQ EN BAROEUL O.",
      "source": "API-DOFA",
      "source_url": "https://api-dofa.fff.fr/api/compets/439189/phases/1/poules/1/resultat",
      "venue": {
        "city": "Grande-Synthe",
        "lat": 51.0111,
        "lon": 2.2992
      }
    },
    {
      "competition": "R1",
      "competition_label": "R1",
      "kickoff": "2026-04-18T00:00:00+00:00",
      "home": "GRAVELINES US",
      "away": "PAYS DE ST OMER US",
      "source": "API-DOFA",
      "source_url": "https://api-dofa.fff.fr/api/compets/439189/phases/1/poules/1/resultat",
      "venue": {
        "city": "Gravelines",
        "lat": 50.986,
        "lon": 2.128
      }
    },
    {
      "competition": "R1",
      "competition_label": "R1",
      "kickoff": "2026-04-18T00:00:00+00:00",
      "home": "MONTIGNY GOHELLE FC",
      "away": "DUNKERQUE USL",
      "source": "API-DOFA",
      "source_url": "https://api-dofa.fff.fr/api/compets/439189/phases/1/poules/1/resultat",
      "venue": {
        "city": "Montigny-en-Gohelle",
        "lat": 50.424,
        "lon": 2.9393
      }
    },
    {
      "competition": "R1",
      "competition_label": "R1",
      "kickoff": "2026-04-18T00:00:00+00:00",
      "home": "VALENCIENNES FC",
      "away": "ARRAS FA",
      "source": "API-DOFA",
      "source_url": "https://api-dofa.fff.fr/api/compets/439189/phases/1/poules/2/resultat",
      "venue": {
        "city": "Valenciennes",
        "lat": 50.3579317,
        "lon": 3.5234846
      }
    },
    {
      "competition": "R1",
      "competition_label": "R1",
      "kickoff": "2026-04-18T00:00:00+00:00",
      "home": "COMPIEGNE AFC",
      "away": "LONGUEAU ESC",
      "source": "API-DOFA",
      "source_url": "https://api-dofa.fff.fr/api/compets/439189/phases/1/poules/2/resultat",
      "venue": {
        "city": "Compiègne",
        "lat": 49.417,
        "lon": 2.8269
      }
    },
    {
      "competition": "R1",
      "competition_label": "R1",
      "kickoff": "2026-04-18T00:00:00+00:00",
      "home": "LAON US",
      "away": "MAUBEUGE US",
      "source": "API-DOFA",
      "source_url": "https://api-dofa.fff.fr/api/compets/439189/phases/1/poules/2/resultat",
      "venue": {
        "city": "Laon",
        "lat": 49.564,
        "lon": 3.623
      }
    },
    {
      "competition": "R1",
      "competition_label": "R1",
      "kickoff": "2026-04-19T00:00:00+00:00",
      "home": "LENS RC",
      "away": "ROUBAIX RACING CLUB",
      "source": "API-DOFA",
      "source_url": "https://api-dofa.fff.fr/api/compets/439189/phases/1/poules/1/resultat",
      "venue": {
        "city": "Lens",
        "lat": 50.4291723,
        "lon": 2.8319805
      }
    },
    {
      "competition": "R1",
      "competition_label": "R1",
      "kickoff": "2026-04-19T00:00:00+00:00",
      "home": "TOURCOING US",
      "away": "BETHUNE STADE",
      "source": "API-DOFA",
      "source_url": "https://api-dofa.fff.fr/api/compets/439189/phases/1/poules/1/resultat",
      "venue": {
        "city": "Tourcoing",
        "lat": 50.7239,
        "lon": 3.1612
      }
    },
    {
      "competition": "R1",
      "competition_label": "R1",
      "kickoff": "2026-04-19T00:00:00+00:00",
      "home": "STEENVOORDE AS",
      "away": "BOULOGNE S/MER USCO",
      "source": "API-DOFA",
      "source_url": "https://api-dofa.fff.fr/api/compets/439189/phases/1/poules/1/resultat",
      "venue": {
        "city": "Steenvoorde",
        "lat": 50.8106,
        "lon": 2.5832
      }
    },
    {
      "competition": "R1",
      "competition_label": "R1",
      "kickoff": "2026-04-19T00:00:00+00:00",
      "home": "CAMBRAI AC",
      "away": "ITANCOURT NEUVILLE",
      "source": "API-DOFA",
      "source_url": "https://api-dofa.fff.fr/api/compets/439189/phases/1/poules/2/resultat",
      "venue": {
        "city": "Cambrai",
        "lat": 50.175,
        "lon": 3.234
      }
    },
    {
      "competition": "R1",
      "competition_label": "R1",
      "kickoff": "2026-04-19T00:00:00+00:00",
      "home": "CAMON US",
      "away": "CHAMBLY OISE FC",
      "source": "API-DOFA",
      "source_url": "https://api-dofa.fff.fr/api/compets/439189/phases/1/poules/2/resultat",
      "venue": {
        "city": "Camon",
        "lat": 49.887,
        "lon": 2.344
      }
    },
    {
      "competition": "R1",
      "competition_label": "R1",
      "kickoff": "2026-04-19T00:00:00+00:00",
      "home": "ST AMAND FC",
      "away": "FEIGNIES/AULNOYE EFC",
      "source": "API-DOFA",
      "source_url": "https://api-dofa.fff.fr/api/compets/439189/phases/1/poules/2/resultat",
      "venue": {
        "city": "Saint-Amand-les-Eaux",
        "lat": 50.447,
        "lon": 3.43
      }
    },
    {
      "competition": "R1",
      "competition_label": "R1",
      "kickoff": "2026-04-19T00:00:00+00:00",
      "home": "PONT STE MAXENCE US",
      "away": "SOISSONS IFC",
      "source": "API-DOFA",
      "source_url": "https://api-dofa.fff.fr/api/compets/439189/phases/1/poules/2/resultat",
      "venue": {
        "city": "Pont-Sainte-Maxence",
        "lat": 49.301,
        "lon": 2.604
      }
    },
    {
      "competition": "R1",
      "competition_label": "R1",
      "kickoff": "2026-04-25T00:00:00+00:00",
      "home": "BETHUNE STADE",
      "away": "GRANDE SYNTHE O.",
      "source": "API-DOFA",
      "source_url": "https://api-dofa.fff.fr/api/compets/439189/phases/1/poules/1/calendrier",
      "venue": {
        "city": "Béthune",
        "lat": 50.531,
        "lon": 2.64
      }
    },
    {
      "competition": "R1",
      "competition_label": "R1",
      "kickoff": "2026-04-25T00:00:00+00:00",
      "home": "LONGUEAU ESC",
      "away": "VALENCIENNES FC",
      "source": "API-DOFA",
      "source_url": "https://api-dofa.fff.fr/api/compets/439189/phases/1/poules/2/calendrier",
      "venue": {
        "city": "Longueau",
        "lat": 49.866,
        "lon": 2.357
      }
    },
    {
      "competition": "R1",
      "competition_label": "R1",
      "kickoff": "2026-04-25T00:00:00+00:00",
      "home": "ARRAS FA",
      "away": "LAON US",
      "source": "API-DOFA",
      "source_url": "https://api-dofa.fff.fr/api/compets/439189/phases/1/poules/2/calendrier",
      "venue": {
        "city": "Arras",
        "lat": 50.291,
        "lon": 2.777
      }
    },
    {
      "competition": "R1",
      "competition_label": "R1",
      "kickoff": "2026-04-26T00:00:00+00:00",
      "home": "MONTIGNY GOHELLE FC",
      "away": "LENS RC",
      "source": "API-DOFA",
      "source_url": "https://api-dofa.fff.fr/api/compets/439189/phases/1/poules/1/calendrier",
      "venue": {
        "city": "Montigny-en-Gohelle",
        "lat": 50.424,
        "lon": 2.9393
      }
    },
    {
      "competition": "R1",
      "competition_label": "R1",
      "kickoff": "2026-04-26T00:00:00+00:00",
      "home": "ROUBAIX RACING CLUB",
      "away": "BONDUES FC",
      "source": "API-DOFA",
      "source_url": "https://api-dofa.fff.fr/api/compets/439189/phases/1/poules/1/calendrier",
      "venue": {
        "city": "Roubaix",
        "lat": 50.6927,
        "lon": 3.1746
      }
    },
    {
      "competition": "R1",
      "competition_label": "R1",
      "kickoff": "2026-04-26T00:00:00+00:00",
      "home": "CALAIS RACING CLUB",
      "away": "BOULOGNE S/MER USCO",
      "source": "API-DOFA",
      "source_url": "https://api-dofa.fff.fr/api/compets/439189/phases/1/poules/1/calendrier",
      "venue": {
        "city": "Calais",
        "lat": 50.9513,
        "lon": 1.8587
      }
    },
    {
      "competition": "R1",
      "competition_label": "R1",
      "kickoff": "2026-04-26T00:00:00+00:00",
      "home": "STEENVOORDE AS",
      "away": "TOURCOING US",
      "source": "API-DOFA",
      "source_url": "https://api-dofa.fff.fr/api/compets/439189/phases/1/poules/1/calendrier",
      "venue": {
        "city": "Steenvoorde",
        "lat": 50.8106,
        "lon": 2.5832
      }
    },
    {
      "competition": "R1",
      "competition_label": "R1",
      "kickoff": "2026-04-26T00:00:00+00:00",
      "home": "MARCQ EN BAROEUL O.",
      "away": "PAYS DE ST OMER US",
      "source": "API-DOFA",
      "source_url": "https://api-dofa.fff.fr/api/compets/439189/phases/1/poules/1/calendrier",
      "venue": {
        "city": "Marcq-en-Barœul",
        "lat": 50.6764,
        "lon": 3.0977
      }
    },
    {
      "competition": "R1",
      "competition_label": "R1",
      "kickoff": "2026-04-26T00:00:00+00:00",
      "home": "CHAMBLY OISE FC",
      "away": "PONT STE MAXENCE US",
      "source": "API-DOFA",
      "source_url": "https://api-dofa.fff.fr/api/compets/439189/phases/1/poules/2/calendrier",
      "venue": {
        "city": "Chambly",
        "lat": 49.1662774,
        "lon": 2.2444986
      }
    },
    {
      "competition": "R1",
      "competition_label": "R1",
      "kickoff": "2026-04-26T00:00:00+00:00",
      "home": "CAMBRAI AC",
      "away": "ST AMAND FC",
      "source": "API-DOFA",
      "source_url": "https://api-dofa.fff.fr/api/compets/439189/phases/1/poules/2/calendrier",
      "venue": {
        "city": "Cambrai",
        "lat": 50.175,
        "lon": 3.234
      }
    },
    {
      "competition": "R1",
      "competition_label": "R1",
      "kickoff": "2026-04-26T00:00:00+00:00",
      "home": "MAUBEUGE US",
      "away": "CAMON US",
      "source": "API-DOFA",
      "source_url": "https://api-dofa.fff.fr/api/compets/439189/phases/1/poules/2/calendrier",
      "venue": {
        "city": "Maubeuge",
        "lat": 50.2779,
        "lon": 3.9727
      }
    },
    {
      "competition": "R1",
      "competition_label": "R1",
      "kickoff": "2026-04-26T00:00:00+00:00",
      "home": "ITANCOURT NEUVILLE",
      "away": "COMPIEGNE AFC",
      "source": "API-DOFA",
      "source_url": "https://api-dofa.fff.fr/api/compets/439189/phases/1/poules/2/calendrier",
      "venue": {
        "city": "Itancourt",
        "lat": 49.804,
        "lon": 3.335
      }
    }
  ]
}