{
  "season": "2025-2026",
  "matches": [
    {
      "id": "TEST_001",
      "competition": "R2",
      "competition_label": "Régional 2",
      "kickoff": "2026-02-14T18:00:00+01:00",
      "home": "US Test",
      "away": "AS Exemple",
      "venue": {
        "name": "Stade Test",
        "city": "Saint-Quentin",
        "postcode": "02100",
        "lat": 49.848,
        "lon": 3.287
      },
      "source": "LFHF",
      "source_url": ""
    },
    {
      "id": "TEST_002",
      "competition": "R3",
      "competition_label": "Régional 3",
      "kickoff": "2026-02-14T20:00:00+01:00",
      "home": "FC Chauny",
      "away": "AS Tergnier",
      "venue": {
        "name": "Stade Chauny",
        "city": "Chauny",
        "postcode": "02300",
        "lat": 49.615,
        "lon": 3.218
      },
      "source": "LFHF",
      "source_url": ""
    },
    {
      "id": "TEST_003",
      "competition": "N3",
      "competition_label": "National 3",
      "kickoff": "2026-02-15T15:00:00+01:00",
      "home": "US Laon",
      "away": "RC Lens B",
      "venue": {
        "name": "Stade Laon",
        "city": "Laon",
        "postcode": "02000",
        "lat": 49.565,
        "lon": 3.624
      },
      "source": "FFF",
      "source_url": ""
    },
    {
      "id": "TEST_004",
      "competition": "R1",
      "competition_label": "Régional 1",
      "kickoff": "2026-02-15T17:00:00+01:00",
      "home": "Amiens AC",
      "away": "US Maubeuge",
      "venue": {
        "name": "Stade Amiens",
        "city": "Amiens",
        "postcode": "80000",
        "lat": 49.894,
        "lon": 2.295
      },
      "source": "LFHF",
      "source_url": ""
    }
  ]
}
