{
  "season": "auto",
  "matches": [
    {
      "competition": "R1",
      "competition_label": "R1",
      "kickoff": "2026-03-14T00:00:00+00:00",
      "home": "MARCQ EN BAROEUL O.",
      "away": "BONDUES FC",
      "source": "API-DOFA",
      "source_url": "https://api-dofa.fff.fr/api/compets/439189/phases/1/poules/1/resultat",
      "venue": {
        "city": "Marcq-en-Barœul",
        "lat": 50.6764,
        "lon": 3.0977
      }
    },
    {
      "competition": "R1",
      "competition_label": "R1",
      "kickoff": "2026-03-14T00:00:00+00:00",
      "home": "GRAVELINES US",
      "away": "BOULOGNE S/MER USCO",
      "source": "API-DOFA",
      "source_url": "https://api-dofa.fff.fr/api/compets/439189/phases/1/poules/1/resultat",
      "venue": {
        "city": "Gravelines",
        "lat": 50.986,
        "lon": 2.128
      }
    },
    {
      "competition": "R1",
      "competition_label": "R1",
      "kickoff": "2026-03-14T00:00:00+00:00",
      "home": "PAYS DE ST OMER US",
      "away": "TOURCOING US",
      "source": "API-DOFA",
      "source_url": "https://api-dofa.fff.fr/api/compets/439189/phases/1/poules/1/resultat",
      "venue": {
        "city": "Saint-Omer",
        "lat": 50.7501,
        "lon": 2.2602
      }
    },
    {
      "competition": "R1",
      "competition_label": "R1",
      "kickoff": "2026-03-14T00:00:00+00:00",
      "home": "LONGUEAU ESC",
      "away": "ITANCOURT NEUVILLE",
      "source": "API-DOFA",
      "source_url": "https://api-dofa.fff.fr/api/compets/439189/phases/1/poules/2/resultat",
      "venue": {
        "city": "Longueau",
        "lat": 49.866,
        "lon": 2.357
      }
    },
    {
      "competition": "R1",
      "competition_label": "R1",
      "kickoff": "2026-03-15T00:00:00+00:00",
      "home": "CALAIS RACING CLUB",
      "away": "ROUBAIX RACING CLUB",
      "source": "API-DOFA",
      "source_url": "https://api-dofa.fff.fr/api/compets/439189/phases/1/poules/1/resultat",
      "venue": {
        "city": "Calais",
        "lat": 50.9513,
        "lon": 1.8587
      }
    },
    {
      "competition": "R1",
      "competition_label": "R1",
      "kickoff": "2026-03-15T00:00:00+00:00",
      "home": "STEENVOORDE AS",
      "away": "MONTIGNY GOHELLE FC",
      "source": "API-DOFA",
      "source_url": "https://api-dofa.fff.fr/api/compets/439189/phases/1/poules/1/resultat",
      "venue": {
        "city": "Steenvoorde",
        "lat": 50.8106,
        "lon": 2.5832
      }
    },
    {
      "competition": "R1",
      "competition_label": "R1",
      "kickoff": "2026-03-15T00:00:00+00:00",
      "home": "BETHUNE STADE",
      "away": "LENS RC",
      "source": "API-DOFA",
      "source_url": "https://api-dofa.fff.fr/api/compets/439189/phases/1/poules/1/resultat",
      "venue": {
        "city": "Béthune",
        "lat": 50.531,
        "lon": 2.64
      }
    },
    {
      "competition": "R1",
      "competition_label": "R1",
      "kickoff": "2026-03-15T00:00:00+00:00",
      "home": "PONT STE MAXENCE US",
      "away": "LAON US",
      "source": "API-DOFA",
      "source_url": "https://api-dofa.fff.fr/api/compets/439189/phases/1/poules/2/resultat",
      "venue": {
        "city": "Pont-Sainte-Maxence",
        "lat": 49.301,
        "lon": 2.604
      }
    },
    {
      "competition": "R1",
      "competition_label": "R1",
      "kickoff": "2026-03-15T00:00:00+00:00",
      "home": "SOISSONS IFC",
      "away": "VALENCIENNES FC",
      "source": "API-DOFA",
      "source_url": "https://api-dofa.fff.fr/api/compets/439189/phases/1/poules/2/resultat",
      "venue": {
        "city": "Soissons",
        "lat": 49.3817,
        "lon": 3.3236
      }
    },
    {
      "competition": "R1",
      "competition_label": "R1",
      "kickoff": "2026-03-15T00:00:00+00:00",
      "home": "CHAMBLY OISE FC",
      "away": "COMPIEGNE AFC",
      "source": "API-DOFA",
      "source_url": "https://api-dofa.fff.fr/api/compets/439189/phases/1/poules/2/resultat",
      "venue": {
        "city": "Chambly",
        "lat": 49.1662774,
        "lon": 2.2444986
      }
    },
    {
      "competition": "R1",
      "competition_label": "R1",
      "kickoff": "2026-03-15T00:00:00+00:00",
      "home": "ARRAS FA",
      "away": "ST AMAND FC",
      "source": "API-DOFA",
      "source_url": "https://api-dofa.fff.fr/api/compets/439189/phases/1/poules/2/resultat",
      "venue": {
        "city": "Arras",
        "lat": 50.291,
        "lon": 2.777
      }
    },
    {
      "competition": "R1",
      "competition_label": "R1",
      "kickoff": "2026-03-15T00:00:00+00:00",
      "home": "MAUBEUGE US",
      "away": "CAMBRAI AC",
      "source": "API-DOFA",
      "source_url": "https://api-dofa.fff.fr/api/compets/439189/phases/1/poules/2/resultat",
      "venue": {
        "city": "Maubeuge",
        "lat": 50.2779,
        "lon": 3.9727
      }
    },
    {
      "competition": "R1",
      "competition_label": "R1",
      "kickoff": "2026-03-21T00:00:00+00:00",
      "home": "STEENVOORDE AS",
      "away": "GRAVELINES US",
      "source": "API-DOFA",
      "source_url": "https://api-dofa.fff.fr/api/compets/439189/phases/1/poules/1/calendrier",
      "venue": {
        "city": "Steenvoorde",
        "lat": 50.8106,
        "lon": 2.5832
      }
    },
    {
      "competition": "R1",
      "competition_label": "R1",
      "kickoff": "2026-03-21T00:00:00+00:00",
      "home": "BETHUNE STADE",
      "away": "MARCQ EN BAROEUL O.",
      "source": "API-DOFA",
      "source_url": "https://api-dofa.fff.fr/api/compets/439189/phases/1/poules/1/calendrier",
      "venue": {
        "city": "Béthune",
        "lat": 50.531,
        "lon": 2.64
      }
    },
    {
      "competition": "R1",
      "competition_label": "R1",
      "kickoff": "2026-03-21T00:00:00+00:00",
      "home": "CAMBRAI AC",
      "away": "VALENCIENNES FC",
      "source": "API-DOFA",
      "source_url": "https://api-dofa.fff.fr/api/compets/439189/phases/1/poules/2/calendrier",
      "venue": {
        "city": "Cambrai",
        "lat": 50.175,
        "lon": 3.234
      }
    },
    {
      "competition": "R1",
      "competition_label": "R1",
      "kickoff": "2026-03-22T00:00:00+00:00",
      "home": "MAUBEUGE US",
      "away": "CHAMBLY OISE FC",
      "source": "API-DOFA",
      "source_url": "https://api-dofa.fff.fr/api/compets/439189/phases/1/poules/2/calendrier",
      "venue": {
        "city": "Maubeuge",
        "lat": 50.2779,
        "lon": 3.9727
      }
    },
    {
      "competition": "R1",
      "competition_label": "R1",
      "kickoff": "2026-03-22T00:00:00+00:00",
      "home": "ARRAS FA",
      "away": "SOISSONS IFC",
      "source": "API-DOFA",
      "source_url": "https://api-dofa.fff.fr/api/compets/439189/phases/1/poules/2/calendrier",
      "venue": {
        "city": "Arras",
        "lat": 50.291,
        "lon": 2.777
      }
    },
    {
      "competition": "R1",
      "competition_label": "R1",
      "kickoff": "2026-03-22T00:00:00+00:00",
      "home": "ITANCOURT NEUVILLE",
      "away": "CAMON US",
      "source": "API-DOFA",
      "source_url": "https://api-dofa.fff.fr/api/compets/439189/phases/1/poules/2/calendrier",
      "venue": {
        "city": "Itancourt",
        "lat": 49.804,
        "lon": 3.335
      }
    },
    {
      "competition": "R1",
      "competition_label": "R1",
      "kickoff": "2026-03-22T00:00:00+00:00",
      "home": "ST AMAND FC",
      "away": "LAON US",
      "source": "API-DOFA",
      "source_url": "https://api-dofa.fff.fr/api/compets/439189/phases/1/poules/2/calendrier",
      "venue": {
        "city": "Saint-Amand-les-Eaux",
        "lat": 50.447,
        "lon": 3.43
      }
    }
  ]
}